[
  {
    "company_id": 10,
    "store_brand": "九龍點心",
    "name": "九龍點心 マークイズ福岡ももち",
    "address": "福岡県福岡市中央区地行浜2-2-1 マークイズ福岡ももち3F",
    "lat": 33.592234,
    "lng": 130.3645564,
    "category_tag": "飲食"
  },
  {
    "company_id": 10,
    "store_brand": "みのりカフェ",
    "name": "みのりカフェ 福岡天神店",
    "address": "福岡県福岡市中央区天神2-11-1 福岡パルコ新館6F",
    "lat": 33.5907445,
    "lng": 130.3986652,
    "category_tag": "飲食"
  },
  {
    "company_id": 10,
    "store_brand": "MACCHAハウス",
    "name": "MACCHAハウス 天神地下街",
    "address": "福岡県福岡市中央区天神2 地下1",
    "lat": 33.5920982,
    "lng": 130.3983437,
    "category_tag": "飲食"
  },
  {
    "company_id": 10,
    "store_brand": "磯丸水産",
    "name": "磯丸水産 大名店",
    "address": "福岡県福岡市中央区大名1-11-4",
    "lat": 33.5869223,
    "lng": 130.3948093,
    "category_tag": "飲食"
  },
  {
    "company_id": 10,
    "store_brand": "純",
    "name": "純 天神警固店",
    "address": "福岡県福岡市中央区警固1-6-56 サウスガーデンビル1F",
    "lat": 33.5848101,
    "lng": 130.3954641,
    "category_tag": "飲食"
  },
  {
    "company_id": 10,
    "store_brand": "タントタント",
    "name": "タントタント KITTE博多",
    "address": "福岡県福岡市博多区博多駅中央街9-1",
    "lat": 33.5888254,
    "lng": 130.4193965,
    "category_tag": "飲食"
  },
  {
    "company_id": 10,
    "store_brand": "磯丸水産",
    "name": "磯丸水産 中洲上川端店",
    "address": "福岡県福岡市博多区上川端11-277 ギンザ屋ビル1F",
    "lat": 33.5941415,
    "lng": 130.4068055,
    "category_tag": "飲食"
  },
  {
    "company_id": 10,
    "store_brand": "磯丸水産",
    "name": "磯丸水産 中洲国体道路店",
    "address": "福岡県福岡市博多区中洲2-3-8 中洲ガーデンテラス1F",
    "lat": 33.5910611,
    "lng": 130.4077036,
    "category_tag": "飲食"
  },
  {
    "company_id": 10,
    "store_brand": "磯丸水産",
    "name": "磯丸水産 西鉄久留米店",
    "address": "福岡県久留米市大手町1-7 1・2F",
    "lat": 33.3131501,
    "lng": 130.5226994,
    "category_tag": "飲食"
  },
  {
    "company_id": 10,
    "store_brand": "新鮮ほるもん",
    "name": "新鮮ほるもん 弐日市亭",
    "address": "福岡県筑紫野市二日市中央6-2-8",
    "lat": 33.5016412,
    "lng": 130.5174542,
    "category_tag": "飲食"
  },
  {
    "company_id": 10,
    "store_brand": "磯丸水産",
    "name": "磯丸水産 小倉魚町店",
    "address": "福岡県北九州市小倉北区魚町1-3-21",
    "lat": 33.8849964,
    "lng": 130.8807654,
    "category_tag": "飲食"
  },
  {
    "company_id": 10,
    "store_brand": "しゃぶ菜",
    "name": "しゃぶ菜 イオン八幡東",
    "address": "福岡県北九州市八幡東区東田3-2-102 イオンモール八幡東1F",
    "lat": 33.8695677,
    "lng": 130.8116334,
    "category_tag": "飲食"
  },
  {
    "company_id": 10,
    "store_brand": "しゃぶ菜",
    "name": "しゃぶ菜 イオン福津",
    "address": "福岡県福津市日蒔野6-16-1 イオンモール福津2F",
    "lat": 33.75341,
    "lng": 130.4941102,
    "category_tag": "飲食"
  },
  {
    "company_id": 10,
    "store_brand": "デザート王国",
    "name": "デザート王国 イオン福津",
    "address": "福岡県福津市日蒔野6-16-1 イオンモール福津3F",
    "lat": 33.75341,
    "lng": 130.4941102,
    "category_tag": "飲食"
  },
  {
    "name": "みのりカフェ季楽 コムボックス佐賀駅前店",
    "store_brand": "みのりカフェ季楽",
    "store_tag": "飲食",
    "address": "佐賀県佐賀市駅前中央1-4-17 コムボックス佐賀駅前 1F",
    "lat": 33.2637617,
    "lng": 130.2983606,
    "company_id": 10
  },
  {
    "name": "みのりカフェ 長崎駅店",
    "store_brand": "みのりカフェ",
    "store_tag": "飲食",
    "address": "長崎県長崎市尾上町1-67 長崎街道かもめ市場内",
    "lat": 32.7531477,
    "lng": 129.8689316,
    "company_id": 10
  },
  {
    "name": "長崎和牛焼肉ぴゅあ",
    "store_brand": "長崎和牛焼肉ぴゅあ",
    "store_tag": "飲食",
    "address": "長崎県長崎市新地町2-7",
    "lat": 32.7419823,
    "lng": 129.8747612,
    "company_id": 10
  },
  {
    "name": "大分ななせゴルフ倶楽部内レストラン",
    "store_brand": "大分ななせゴルフ倶楽部内レストラン",
    "store_tag": "飲食",
    "address": "大分県大分市大字今市541",
    "lat": 33.1170524,
    "lng": 131.459606,
    "company_id": 10
  },
  {
    "name": "カフェ＆ダイニングみのりみのる アミュプラザおおいた店",
    "store_brand": "カフェ＆ダイニングみのりみのる",
    "store_tag": "飲食",
    "address": "大分県大分市要町1-14 アミュプラザおおいた 1F",
    "lat": 33.2331459,
    "lng": 131.6063255,
    "company_id": 10
  }
]